index,basin,code,name,latitude,longitude,elevation,comidant,comid,river,loc1,loc2,loc3,alert
1,MIRA,H0011,MIRA EN LITA,0.875417,-78.450417,475,139515,9021183,RIO MIRA,CARCHI,MIRA,JIJON Y CAAMANO,R0
2,MIRA,H0013,BLANCO AJ MIRA,0.762482,-78.255874,890,139516,9021184,RIO BLANCO,IMBABURA,IBARRA,CAROLINA,R0
3,MIRA,H0015,CHOTA EN PTE.CARRETERA,0.476689,-78.075339,1569,139880,9022030,RIO CHOTA,CARCHI,MIRA,MIRA,R0
4,MIRA,H0016,APAQUI AJ CHOTA,0.439196,-77.940804,1715,139931,9022137,RIO RUMICHACA,CARCHI,BOLIVAR,SAN RAFAEL,R0
5,MIRA,H0017,APAQUI D GRUTA LA PAZ #3,0.497577,-77.849086,2323,139931,9022137,RIO RUMICHACA,CARCHI,MONTUFAR,LA PAZ,R0
6,MIRA,H0018,YAIL AJ APAQUI,0.492083,-77.855417,2500,139931,9022137,RIO RUMICHACA,CARCHI,MONTUFAR,LA PAZ,R0
7,MIRA,H0022,SAN GABRIEL EN PTE.CARRETERA,0.57557,-77.826378,2850,0,9021926,,CARCHI,MONTUFAR,SAN GABRIEL,R0
8,MIRA,H0023,AMBI DJ CARIYACU,0.372917,-78.214583,2015,140198,9022305,RIO AMBI,IMBABURA,SAN MIGUEL DE URCUQUI,URCUQUI,R0
9,MIRA,H0024,BLANCO EN PTE.CARRETERA,0.250832,-78.300832,2573,0,9022698,RIO BLANCO,IMBABURA,OTAVALO,SAN JOSE DE QUICHINCHE,R0
10,MIRA,H0026,ITAMBI EN L.S.PABLO,0.201636,-78.209575,2648,0,9022897,RIO JATUNYACU,IMBABURA,OTAVALO,SAN PABLO,R0
11,MIRA,H0045,APAQUI DJ MINAS,0.5368,-77.7832,2650,139931,9021927,RIO RUMICHACA,CARCHI,MONTUFAR,SAN GABRIEL,R0
12,MIRA,H0064,EL ANGEL EN PTE.AYORA,0.626861,-77.950417,2850,139881,9022031,RIO EL ANGEL,CARCHI,ESPEJO,EL ANGEL,R0
13,CARCHI,H0091,GRANDE AJ JATIVA,0.804167,-77.846111,3120,0,9021064,,CARCHI,TULCAN,TUFINO,R0
14,CARCHI,H0093,BOBO EN PLTA.ELEC.TULCAN,0.81375,-77.749013,2880,0,9021237,RIO BOBO,CARCHI,TULCAN,TULCAN,R0
15,ESMERALDAS,H0136,ALAMBI EN CHURUPAMBA,0.150418,-78.680417,920,140495,9023111,RIO ALAMBI,PICHINCHA,DISTRITO METROPOLITANO DE QUITO,NANEGAL,R0
16,ESMERALDAS,H0138,BLANCO D.J. TOACHI(PTE.UNICOOP),-0.087924,-79.280403,284,140661,9023841,RIO BLANCO,SANTO DOMINGO DE LOS TSACHILAS,SANTO DOMINGO DE LOS TSACHILAS,VALLE HERMOSO,R0
17,ESMERALDAS,H0139,BLANCO EN LOS BANCOS,0.007088,-78.904788,795,140641,9023794,RIO BLANCO,PICHINCHA,SAN MIGUEL DE LOS BANCOS,SAN MIGUEL DE LOS BANCOS,R0
18,ESMERALDAS,H0141,CANAL TABACUNDO,0.149722,-78.023333,0,0,9023321,,PICHINCHA,CAYAMBE,OLMEDO (PECILLO),R0
19,ESMERALDAS,H0143,GRANOBLES AJ GUACHALA,0.014166,-78.172917,2750,140514,9023477,RIO GRANOBLES,PICHINCHA,PEDRO MONCAYO,TABACUNDO,R0
20,ESMERALDAS,H0144,GUACHALA AJ GRANOBLES,0.009601,-78.158284,2740,140579,9023553,RIO GUACHALA,PICHINCHA,CAYAMBE,CAYAMBE,R0
21,ESMERALDAS,H0145,GUAYLLABAMBA DJ CUBI,0.092975,-78.429573,1540,140481,9023398,RIO GUAYLLABAMBA,PICHINCHA,DISTRITO METROPOLITANO DE QUITO,PUELLARO,R0
22,ESMERALDAS,H0146,GUAYLLABAMBA DJ ALAMBI,0.235415,-78.743751,625,140257,9022789,RIO GUAYLLABAMBA,IMBABURA,COTACACHI,GARCIA MORENO,R0
23,ESMERALDAS,H0147,GUAYLLABAMBA DJ PACHIJAL,0.220417,-78.999583,410,140256,9022868,RIO GUAYLLABAMBA,IMBABURA,COTACACHI,GARCIA MORENO,R0
24,ESMERALDAS,H0148,GUAYLLABAMBA DJ PISQUE,0.013261,-78.40625,1690,140577,9023624,RIO GUAYLLABAMBA,PICHINCHA,DISTRITO METROPOLITANO DE QUITO,SAN ANTONIO,R0
25,ESMERALDAS,H0149,GUAYLLABAMBA EN PTE.CHACAPATA,0.180417,-78.640417,860,140360,9023154,RIO GUAYLLABAMBA,PICHINCHA,DISTRITO METROPOLITANO DE QUITO,SAN JOSE DE MINAS,R0
26,ESMERALDAS,H0150,INTAG DJ PAMPLONA,0.220005,-78.621661,1000,140246,9022801,RIO INTAG,IMBABURA,OTAVALO,SELVA ALEGRE,R0
27,ESMERALDAS,H0151,INTAG EN BALZAPAMBA,0.335807,-78.535026,0,140246,9022801,RIO INTAG,IMBABURA,COTACACHI,VACAS GALINDO,R0
28,ESMERALDAS,H0152,LA CHIMBA EN OLMEDO,0.154452,-77.993079,3096,0,9023321,,PICHINCHA,CAYAMBE,OLMEDO (PECILLO),R0
29,ESMERALDAS,H0153,LELIA DJ CRISTAL,-0.37264,-79.031693,860,0,9024554,RIO LELIA,SANTO DOMINGO DE LOS TSACHILAS,SANTO DOMINGO DE LOS TSACHILAS,ALLURIQUIN,R0
30,ESMERALDAS,H0155,PILATON DJ SACALZON(EN LA TOMA),-0.362917,-78.835417,1130,141132,9024662,RIO PILATON,PICHINCHA,MEJIA,MANUEL CORNEJO ASTORGA,R0
31,ESMERALDAS,H0156,PILATON AJ TOACHI,-0.312917,-78.932917,890,141132,9024599,RIO PILATON,PICHINCHA,MEJIA,MANUEL CORNEJO ASTORGA (TANDAPI),R0
32,ESMERALDAS,H0158,PITA AJ SALTO,-0.571085,-78.42625,3550,141304,9025440,RIO PITA,PICHINCHA,MEJIA,MACHACHI,R0
33,ESMERALDAS,H0159,SAN PEDRO EN MACHACHI,-0.460417,-78.549583,2680,141300,9025406,RIO SAN PEDRO,PICHINCHA,MEJIA,MACHACHI,R0
34,ESMERALDAS,H0160,SARAPULLO AJ TOACHI,-0.393892,-78.895275,1020,141264,9025212,RIO SARAPULLO,PICHINCHA,MEJIA,MANUEL CORNEJO ASTORGA,R0
35,ESMERALDAS,H0161,TOACHI AJ PILATON,-0.318166,-78.95375,820,141024,9024683,RIO TOACHI,SANTO DOMINGO DE LOS TSACHILAS,SANTO DOMINGO,ALLURIQUIN,R0
36,ESMERALDAS,H0163,TOACHI DJ SARAPULLO,-0.364041,-78.910708,950,141024,9024683,RIO TOACHI,PICHINCHA,MEJIA,MANUEL CORNEJO ASTORGA,R0
37,ESMERALDAS,H0165,TOACHI AJ ALLURIQUIN,-0.318333,-78.9875,850,140957,9024505,RIO TOACHI,SANTO DOMINGO DE LOS TSACHILAS,SANTO DOMINGO DE LOS TSACHILAS,ALLURIQUIN,R0
38,ESMERALDAS,H0166,TOACHI EN LAS PAMPAS,-0.440417,-78.95125,1110,141451,9024920,RIO NEGRO,COTOPAXI,SIGCHOS,LAS PAMPAS,R0
39,ESMERALDAS,H0167,TOACHI EN S.D.DE LOS COLORADOS,-0.240417,-79.13875,420,140957,9024473,RIO TOACHI,SANTO DOMINGO DE LOS TSACHILAS,SANTO DOMINGO,SANTO DOMINGO DE LOS COLORADOS,R0
40,ESMERALDAS,H0168,ESMERALDAS DJ SADE,0.531547,-79.423214,51,139875,9022024,RIO ESMERALDAS,ESMERALDAS,QUININDE,CHURA,R0
41,ESMERALDAS,H0170,GUAYLLABAMBA AJ BLANCO,0.44236,-79.40014,90,140144,9022479,RIO GUAYLLABAMBA,ESMERALDAS,QUININDE,MALIMPIA,R0
42,ESMERALDAS,H0172,TEAONE DJ TABIAZO,0.843128,-79.703128,16,139584,9021015,RIO TIAONE,ESMERALDAS,ESMERALDAS,TABIAZO,R0
43,ESMERALDAS,H0173,TEAONE AJ ESMERALDAS,0.85875,-79.705417,9,139584,9021015,RIO TIAONE,ESMERALDAS,ESMERALDAS,VUELTA LARGA,R0
44,ESMERALDAS,H0177,QUININDE EN QUININDE,0.329177,-79.477083,110,140127,9022535,RIO QUININDE,ESMERALDAS,QUININDE,ROSA ZARATE,R0
45,ESMERALDAS,H0188,PILATON D.J. CHITOA (EN LA ESPERIE),-0.34875,-78.854583,900,141132,9024599,RIO PILATON,SANTO DOMINGO DE LOS TSACHILAS,SANTO DOMINGO,ALLURIQUIN,R0
46,JAMA,H0206,JAMA EN JAMA,-0.214583,-80.25874,6,140814,9024186,RIO JAMA,MANABI,JAMA,JAMA,R0
47,JAMA,H0210,BRICENO EN BOTADERO,-0.525417,-80.351164,15,141278,9025255,RIO BRICENO,MANABI,SAN VICENTE,SAN VICENTE,R0
48,ESMERALDAS,H0216,BUA AJ QUININDE,-0.022083,-79.603742,0,140671,9023956,RIO BUA,ESMERALDAS,QUININDE,ROSA ZARATE (QUININDE),R0
49,CHONE,H0229,CARRIZAL EN CALCETA,-0.845298,-80.161369,47,141756,9026308,RIO CARRIZAL,MANABI,BOLIVAR,CALCETA,R0
50,CHONE,H0230,GARRAPATA AJ CHONE,-0.664134,-80.04375,50,0,9025601,RIO GARRAPATA,MANABI,CHONE,CHONE,R0
51,CHONE,H0232,MOSQUITO AJ GRANDE,-0.667917,-80.025417,55,0,9025573,RIO MOSQUITO,MANABI,CHONE,CHONE,R0
52,CHONE,H0233,JUNIN DJ EST.PALMAR,-0.904583,-80.182083,20,141811,9026436,RIO MOSCA,MANABI,JUNIN,JUNIN,R0
53,CHONE,H0235,CHONE EN CHONE,-0.694701,-80.094466,24,141493,9025666,RIO CHONE,MANABI,PEDERNALES,10 DE AGOSTO,R0
54,PORTOVIEJO,H0267,PORTOVIEJO EN STA.ANA,-1.20906,-80.365107,62,142234,9027406,,MANABI,SANTA ANA,SANTA ANA DE VUELTA LARGA,R0
55,PORTOVIEJO,H0269,PORTOVIEJO EN LA GUAYABA,-0.939583,-80.45625,0,141863,9026567,RIO PORTOVIEJO,MANABI,ROCAFUERTE,ROCAFUERTE,R0
56,PORTOVIEJO,H0272,CHICO AJ PORTOVIEJO,-0.97375,-80.422917,35,142012,9026872,RIO CHICO,MANABI,PORTOVIEJO,RIOCHICO (RIO CHICO),R0
57,PORTOVIEJO,H0273,LODANA EN PTE.CARRETERA,-1.180417,-80.387083,70,142243,9027415,RIO LODANA,MANABI,SANTA ANA,SANTA ANA DE VUELTA LARGA,R0
58,GUAYAS,H0326,BABA DJ TOACHI-DCP,-0.669583,-79.386243,125,141790,9026380,RIO BABA,LOS RIOS,VALENCIA,VALENCIA,R0
59,GUAYAS,H0327,CAJONES EN KM.18 1/2,-0.245556,-79.325278,600,0,9024868,,SANTO DOMINGO DE LOS TSACHILAS,SANTO DOMINGO,SANTO DOMINGO DE LOS COLORADOS,R0
60,GUAYAS,H0329,PILALO EN LA ESPERANZA,-0.887917,-79.06875,920,141851,9026419,RIO PILALO,COTOPAXI,SIGCHOS,CHUGCHILLAN,R0
61,GUAYAS,H0330,CHANCHAN EN KM.90+180,-2.22125,-79.134583,326,143969,9031392,RIO CHANCHAN,CHIMBORAZO,CUMANDA,CUMANDA,R0
62,GUAYAS,H0331,CHIMBO EN SAN LORENZO,-1.666635,-79.005417,2419,143363,9029083,RIO CHIMBO,BOLIVAR,CHIMBO,SAN JOSE DE CHIMBO,R0
63,GUAYAS,H0332,CANAL CHIMBO EN SAN LORENZO,-1.667083,-79.005417,2419,143363,9029083,RIO CHIMBO,BOLIVAR,GUARANDA,SAN LORENZO,R0
64,GUAYAS,H0333,SAN LORENZO EN SAN LORENZO,-1.68875,-78.999566,2464,0,9029110,RIO SAN LORENZO,BOLIVAR,GUARANDA,SAN LORENZO,R0
65,GUAYAS,H0334,DE CHIMA AJ LAS PESQ.(SICOTO AJ),-1.856873,-79.070419,2100,143399,9030145,RIO DE LA CHINA,BOLIVAR,SAN MIGUEL,SAN PABLO (SAN PABLO DE ATENAS),R0
66,GUAYAS,H0335,LAS PESQUERIAS AJ DE CHIMA,-1.869948,-79.076615,2070,143399,9030145,RIO DE LA CHINA,BOLIVAR,SAN MIGUEL,SAN PABLO,R0
67,GUAYAS,H0337,PANGOR AJ CHIMBO,-1.932814,-79.001975,1480,143371,9030052,RIO PANGOR,CHIMBORAZO,COLTA,JUAN DE VELASCO (PANGOR),R0
68,GUAYAS,H0338,CHIMBO DJ PANGOR,-1.938068,-79.008639,1452,143592,9030564,RIO CHIMBO,BOLIVAR,CHILLANES,CHILLANES,R0
69,GUAYAS,H0340,CHIMBO EN BUCAY,-2.202919,-79.138071,297,143824,9031012,RIO CHIMBO,CHIMBORAZO,CUMANDA,CUMANDA,R0
70,GUAYAS,H0343,ECHEANDIA EN ECHEANDIA,-1.42875,-79.28125,425,142627,9028271,RIO SOLOMA,BOLIVAR,ECHEANDIA,ECHEANDIA,R0
71,GUAYAS,H0345,ZAPOTAL EN CATARAMA(CATARAMA EN),-1.57125,-79.44875,40,142843,9028791,RIO LAS PIEDRAS,LOS RIOS,URDANETA,CATARAMA,R0
72,GUAYAS,H0346,ZAPOTAL EN LECHUGAL,-1.398333,-79.429167,40,142588,9028108,RIO ZAPOTAL,LOS RIOS,VENTANAS,LOS ANGELES,R0
73,GUAYAS,H0347,QUEVEDO EN QUEVEDO,-1.007915,-79.457071,125,142509,9027991,RIO QUEVEDO,LOS RIOS,QUEVEDO,QUEVEDO,R0
74,GUAYAS,H0348,VINCES EN VINCES-DCP,-1.547083,-79.75,41,143295,9029256,RIO VINCES,LOS RIOS,VINCES,VINCES,R0
75,GUAYAS,H0349,BABAHOYO EN BABAHOYO,-1.798153,-79.538153,9,143220,9029697,RIO BABAHOYO,LOS RIOS,BABAHOYO,BABAHOYO,R0
76,GUAYAS,H0351,DAULE EN PICHINCHA,-1.04875,-79.817083,70,142310,9026890,RIO DAULE,MANABI,PICHINCHA,PICHINCHA,R0
77,GUAYAS,H0352,MACUL EN PTE.CARRETERA,-1.06625,-79.61625,54,142462,9027907,RIO MACUL,GUAYAS,EMPALME,VELASCO IBARRA (CAB. EL EMPALME),R0
78,GUAYAS,H0354,DAULE EN LA LINDA,-1.332957,-79.889583,8,142467,9027917,RIO DAULE,GUAYAS,BALZAR,BALZAR,R0
79,GUAYAS,H0359,PAJAN EN AGUA FRIA,-1.610417,-80.377083,323,142925,9028982,RIO PAJAN,MANABI,PAJAN,CAMPOZANO (LA PALMA DE PAJAN),R0
80,GUAYAS,H0363,DAULE EN BALZAR,-1.359974,-79.912918,30,142752,9028567,RIO DAULE,GUAYAS,BALZAR,BALZAR,R0
81,GUAYAS,H0365,DAULE EN LA CAPILLA,-1.699584,-79.994969,13,143233,9029221,RIO DAULE,GUAYAS,SANTA LUCIA,SANTA LUCIA,R0
82,GUAYAS,H0371,SAN PABLO EN PALMAR,-1.830205,-79.437294,10,143237,9029742,,LOS RIOS,MONTALVO,MONTALVO,R0
83,GUAYAS,H0373,VERNAZA DD VINCES,-1.63875,-79.79875,16,143295,9029256,RIO VINCES,LOS RIOS,VINCES,ANTONIO SOTOMAYOR,R0
84,GUAYAS,H0375,CHANCHAN DJ HUATAXI,-2.274583,-78.960417,1480,143969,9031418,RIO CHANCHAN,CHIMBORAZO,ALAUSI,HUIGRA,R0
85,GUAYAS,H0385,ANGAS AJ CHANCHAN,-2.302923,-79.061665,742,0,9031643,RIO ANGAS,CANAR,CANAR,GENERAL MORALES (SOCARTE),R0
86,GUAYAS,H0390,CHIMBO AJ MILAGRO INAMHI,-2.135417,-79.667083,30,143840,9031142,RIO CHIMBO,GUAYAS,SAN JACINTO DE YAGUACHI,SAN JACINTO DE YAGUACHI,R0
87,GUAYAS,H0391,DAULE EN STA.LUCIA,-1.717917,-79.992083,12,143233,9029221,RIO DAULE,GUAYAS,SANTA LUCIA,SANTA LUCIA,R0
88,GUAYAS,H0392,JUNQUILLO DD VERNASA,-1.682083,-79.802917,25,143295,9029256,RIO VINCES,LOS RIOS,VINCES,ANTONIO SOTOMAYOR,R0
89,GUAYAS,H0394,EMBARCADERO EN H.CLEM(POT-STA.ROSA),-1.70625,-79.393768,18,143003,9029165,,LOS RIOS,BABAHOYO,LA UNION,R0
90,GUAYAS,H0399,COLIMES EN POTRERILLOS,-1.550417,-80.067917,15,142925,9028709,RIO COLIMES,GUAYAS,COLIMIES,COLIMIES,R0
91,GUAYAS,H0400,PEDRO CARBO EN PEDRO CARBO,-1.81875,-80.227083,65,143227,9029670,RIO PEDRO CARBO,GUAYAS,PEDRO CARBO,PEDRO CARBO,R0
92,GUAYAS,H0401,PULA EN LA LAUREL,-1.782369,-79.902369,6,143405,9029952,RIO PULA,GUAYAS,SALITRE,JUNQUILLAL,R0
93,GUAYAS,H0402,CONGO EN PTE.CARRETERA,-1.03875,-79.695417,30,142314,9027610,RIO CONGO,GUAYAS,EMPALME,VELASCO IBARRA (CAB. EL EMPALME),R0
94,GUAYAS,H0407,PULA EN PALIZADA,-1.648764,-79.867916,16,143405,9029233,RIO PULA,GUAYAS,SALITRE,JUQUILLAL,R0
95,GUAYAS,H0414,TOACHI AJ BABA,-0.67625,-79.36125,151,141485,9025671,RIO TOACHI,SANTO DOMINGO DE LOS TSACHILAS,SANTO DOMINGO,SANTA MARIA DEL TOACHI,R0
96,GUAYAS,H0415,SAN PABLO EN LA MANA,-0.93798,-79.223813,238,141851,9026532,RIO SAN PABLO,COTOPAXI,LA MANA,LA MANA,R0
97,GUAYAS,H0418,SUQUIBI AJ NAVES,-1.284583,-79.319583,0,142376,9027762,RIO SUQUIBI,BOLIVAR,LAS NAVES,LAS NAVES,R0
98,ZAPOTAL,H0434,VALDIVIA EN EL SUSPIRO,-1.895278,-80.629722,0,0,9030051,RIO CALIFORNIA,SANTA ELENA,SANTA ELENA,COLONCHE,R0
99,TAURA,H0447,BULUBULU AJ PAYO,-2.292917,-79.50125,40,144038,9031564,RIO BULUBULU,GUAYAS,EL TRIUNFO,EL TRIUNFO,R0
100,TAURA,H0448,PAYO AJ BULUBULU,-2.281667,-79.504167,25,143918,9031320,,GUAYAS,CORONEL MARCELINO MARIDUENA,CORONEL MARCELINO MARIDUENA,R0
101,CANAR,H0466,SILANTE EN INGAPIRCA,-2.539167,-78.881667,2709,0,9032257,RIO SILANTE,CANAR,CANAR,INGAPIRCA,R0
102,CANAR,H0467,VENDELECHE EN HDA.LA CURIA,-2.582084,-78.872916,3020,0,9032495,RIO VENDE LECHE,CANAR,CANAR,HONORATO VASQUEZ (TAMBO VIEJO),R0
103,CANAR,H0468,SAN PEDRO EN INGAPIRCA,-2.583749,-78.843499,2700,0,9032405,RIO SAN PEDRO,CANAR,CANAR,HONORATO VASQUEZ (TAMBO VIEJO),R0
104,CANAR,H0471,CANAR DJ RAURA,-2.482744,-79.154411,870,144381,9032090,RIO CANAR,CANAR,CANAR,GUALLETURO,R0
105,CANAR,H0472,CANAR EN PTO.INCA,-2.547498,-79.556665,25,144405,9032436,,GUAYAS,NARANJAL,JESUS MARIA,R0
106,BALAO,H0503,TENGUEL EN TENGUEL,-2.990416,-79.787,10,145089,9033987,RIO TENGUEL,GUAYAS,GUAYAQUIL,TENGUEL,R0
107,BALAO,H0504,SIETE EN PTE.CARRETERA,-3.07674,-79.752545,13,0,9034278,RIO MACHALERA,AZUAY,CAMILO PONCE ENRIQUEZ,CAMILO PONCE ENRIQUEZ,R0
108,BALAO,H0505,PAGUA EN PTE.CARRETERA,-3.08737,-79.758505,13,0,9034353,,EL ORO,EL GUABO,RIO BONITO,R0
109,BALAO,H0506,PAGUA AJ BONITO(AJ SIETE),-3.084735,-79.780265,30,0,9034353,,EL ORO,EL GUABO,RIO BONITO,R0
110,BALAO,H0507,BONITO EN PTE.CARRETERA(AJ PAGUA),-3.106923,-79.766842,30,0,9034353,,EL ORO,EL GUABO,RIO BONITO,R0
111,BALAO,H0508,CHAGUANA EN PTE.CARRETERA,-3.20375,-79.797083,5,0,9035091,,EL ORO,EL GUABO,TENDALES (CAB. EN PUERTO TENDALES),R0
112,JUBONES,H0526,PAQUISHAPA EN PTE.CARRETERA,-3.617917,-79.211995,2206,146164,9036512,RIO PAQUISHAPA,LOJA,SARAGURO,URDANETA (PAQUISHAPA),R0
113,JUBONES,H0527,LEON EN PTE.CARRETERA,-3.418841,-79.158829,2020,145946,9035775,RIO LEON,AZUAY,ONA,SAN FELIPE DE ONA,R0
114,JUBONES,H0528,JUBONES DJ MINAS,-3.267083,-79.232917,1120,145676,9035149,RIO RIRCAY,AZUAY,SANTA ISABEL,SANTA ISABEL (CHAGUARURCO),R0
115,JUBONES,H0529,JUBONES DJ S.FRANCISCO,-3.310405,-79.51124,712,145648,9035285,RIO JUBONES,EL ORO,ZARUMA,ABANIN,R0
116,JUBONES,H0530,JUBONES EN USHCURRUMI,-3.32375,-79.605416,282,145665,9035301,RIO JUBONES,EL ORO,PASAJE,UZHCURRUMI,R0
117,JUBONES,H0531,CASACAY AJ JUBONES,-3.327083,-79.717083,134,0,9035579,RIO CASACAY,EL ORO,PASAJE,CASACAY,R0
118,JUBONES,H0533,Jubones en Pte. Iberia,-3.26624999301197,-79.8862500055323,12,145664,9035322,,EL ORO,MACHALA,MACHALA,R0
119,JUBONES,H0547,RIRCAY EN P.ALTO SALTANA,-3.30875,-79.512083,249,145648,9035285,RIO JUBONES,AZUAY,PUCARA,SAN RAFAEL DE SHARUG,R0
120,ARENILLAS,H0571,RASPA EN ASERRIO(BUENA VISTA),-3.397741,-79.807917,80,145909,9035869,RIO SAN AGUSTIN,EL ORO,PASAJE,BUENAVISTA,R0
121,ARENILLAS,H0572,Caluguro ABT Canal de Riego,-3.50208332619501,-79.8787500053611,55,0,9036107,RIO CALAGURO,EL ORO,SANTA ROSA,BELLAMARIA,R0
122,SANTA ROSA,H0573,SANTA ROSA EN EL VADO,-3.556667,-79.946667,80,0,9036369,RIO SANTA ROSA,EL ORO,SANTA ROSA,LA AVANZADA,R0
123,ARENILLAS,H0574,ARENILLAS EN ARENILLAS,-3.565514,-80.048568,20,0,9036653,ESTERO JUMON,EL ORO,ARENILLAS,ARENILLAS,R0
124,PUYANGO,H0586,Calera AJ Amarillo,-3.677777778,-79.64361111,680,146381,9036976,RIO LA CALERA,EL ORO,ZARUMA,MALVAS,R0
125,PUYANGO,H0587,PINDO A.J. AMARILLO,-3.76375,-79.635503,520,0,9037158,RIO PINDO,EL ORO,PORTOVELO,PORTOVELO,R0
126,PUYANGO,H0589,PUYANGO AJ MARCABELI,-3.826255,-79.929569,349,0,9037435,RIO PUYANGO,LOJA,PALTAS,ORIANGA,R0
127,PUYANGO,H0590,MARCABELI AJ PUYANGO,-3.811254,-79.93458,450,0,9037431,RIO MARCABELI,EL ORO,MARCABELI,MARCABELI,R0
128,PUYANGO,H0591,PUYANGO EN CPTO.MILITAR (PTE.CARRETERA),-3.882917,-80.079827,300,146959,9037858,RIO PUYANGO,EL ORO,LAS LAJAS,LA LIBERTAD,R0
129,PUYANGO,H0592,MOROMORO EN MOROMORO,-3.688333,-79.740833,800,146614,9037455,,EL ORO,PINAS,MOROMORO (CAB. EN EL VADO),R0
130,CHIRA,H0616,ALAMOR EN SAUCILLO(DJ CELICA),-4.25875,-80.19625,247,147833,9039494,RIO ALAMOR,LOJA,ZAPOTILLO,GARZAREAL,R0
131,CATAMAYO,H0620,Catamayo en Pte. Santa Rosa,-4.156666667,-79.8612500052613,640,147338,9039050,RIO CATAMAYO,LOJA,SOZORANGA,SOZORANGA,R0
132,CHIRA,H0621,JORUPE EN AMALUZA,-4.581285,-79.433684,1762,0,9040740,RIO AMALUZA,LOJA,ESPINDOLA,AMALUZA,R0
133,CATAMAYO,H0622,Malacatus en Malacatus,-4.216666667,-79.25444444,1657,0,9039213,RIO MALACATOS,LOJA,LOJA,MALACATOS,R0
134,JUBONES,H0625,ALAMOR EN PTE.MERCADILLO,-4.032916,-80.009334,1080,0,9038824,RIO MALATANGA,LOJA,SARAGURO,URDANETA (PAQUISHAPA),R0
135,CATAMAYO,H0626,MACARA EN PTE. INTERNACIONAL,-4.392305,-79.963528,435,147700,9039887,RIO MACARA,LOJA,MACARA,MACARA,R0
136,CATAMAYO,H0628,CATAMAYO DJ GUAYABAL,-4.007083,-79.412077,1120,147273,9038261,RIO CATAMAYO,LOJA,CATAMAYO,SAN PEDRO DE LA BENDITA,R0
137,AGUARICO,H0682,Due AJ Aguarico,0.027777778,-77.3904501599981,0,140519,9023501,RIO DUE,SUCUMBIOS,GONZALO PIZARRO,LUMBAQUI,R0
138,NAPO,H0714,COCA EN SAN RAFAEL,-0.101167,-77.578667,1160,140783,9024121,RIO QUIJOS,NAPO,EL CHACO,GONZALO DIAZ DE PINEDA,R0
139,NAPO,H0718,QUIJOS EN BAEZA,-0.456251,-77.885416,1770,141154,9024983,RIO QUIJOS,NAPO,QUIJOS,SAN FRANCISCO DE BORJA,R0
140,NAPO,H0719,QUIJOS DJ OYACACHI,-0.30616,-77.770326,1490,140956,9024502,RIO QUIJOS,NAPO,EL CHACO,SANTA ROSA,R0
141,NAPO,H0720,MISAHUALLI EN COTUNDO,-0.84625,-77.79875,800,141904,9026643,RIO MISAHUALLI,NAPO,ARCHIDONA,COTUNDO,R0
142,NAPO,H0721,JATUNYACU DJ ILOCULIN,-1.087917,-77.918865,570,142072,9027000,RIO JATUNYACU,NAPO,TENA,TALAG,R0
143,NAPO,H0722,YANAHURCO DJ VALLE,-0.694175,-78.283325,3590,0,9025708,RIO VALLE,NAPO,ARCHIDONA,ARCHIDONA,R0
144,NAPO,H0723,BORJA AJ QUIJOS,-0.437916660616501,-77.8187500065662,1620,0,9024980,RIO BORJA,NAPO,QUIJOS,SUMACO,R0
145,NAPO,H0724,Sardinas AJ Quijos,-0.38208332743759,-77.8254166728859,1195,0,9024730,RIO SARDINAS GRANDE,NAPO,EL CHACO,SARDINAS,R0
146,NAPO,H0726,Coca AJ Malo,-0.152083327000303,-77.6320833397325,1250,140783,9024121,RIO QUIJOS,NAPO,EL CHACO,GONZALO DIAZ DE PINEDA,R0
147,NAPO,H0728,SALADO AJ COCA(AJ GUAYTARINGO),-0.196249993841232,-77.7012500062806,1480,140786,9024126,RIO SALADO,NAPO,EL CHACO,SANTA ROSA,R0
148,NAPO,H0729,OYACACHI AJ QUIJOS,-0.325416660486386,-77.8104166725436,1520,140963,9024515,RIO OYACACHI,NAPO,EL CHACO,EL CHACO,R0
149,NAPO,H0731,COSANGA AJ QUIJOS,-0.469583,-77.85875,1740,141420,9025492,RIO COSANGA,NAPO,QUIJOS,BAEZA,R0
150,NAPO,H0733,QUIJOS AJ BORJA,-0.407083,-77.829166,1635,141143,9024860,RIO QUIJOS,NAPO,QUIJOS,SAN FRANCISCO DE BORJA,R0
151,NAPO,H0735,COCA EN CODO SINCLAIR,-0.197083327275075,-77.6837500061807,0,140783,9024121,RIO QUIJOS,NAPO,EL CHACO,GONZALO DIAZ DE PINEDA,R0
152,PASTAZA,H0764,CALAMACA DJ Q.HUARCUSACHA,-1.246389,-78.826111,3440,0,9027651,,TUNGURAHUA,AMBATO,SAN FERNANDO (PASA SAN FERNANDO),R0
153,PASTAZA,H0772,PUMACUNCHI EN H.PATOCOCHA,-0.87014276766035,-78.6312500059415,2650,141836,9026501,RIO PUMACUNCHI,COTOPAXI,LATACUNGA,GUAYTACAMA,R0
154,PASTAZA,H0773,ALAQUEZ AJ CUTUCHI(COL.S.RODR),-0.902083327026884,-78.6245833387235,2700,141777,9026346,RIO ALAQUEZ,COTOPAXI,LATACUNGA,LATACUNGA,R0
155,PASTAZA,H0774,CUTUCHI EN LATACUNGA,-0.93624999395968,-78.6179166724038,2590,141837,9026502,RIO CUTUCHI,COTOPAXI,LATACUNGA,LATACUNGA,R0
156,PASTAZA,H0775,PUMACUNCHI EN LATACUNGA,-0.896839789362167,-78.6312500059415,2600,141836,9026501,RIO PUMACUNCHI,COTOPAXI,LATACUNGA,LATACUNGA,R0
157,NAPO,H0776,CUNUYACU EN LATACUNGA,-0.929801355213062,-78.619801367089,2585,0,9026442,RIO YANAYACU,COTOPAXI,LATACUNGA,LATACUNGA,R0
158,PASTAZA,H0781,VERDE AJ PASTAZA,-1.400416,-78.29875,1495,0,9028088,RIO VERDE,TUNGURAHUA,BANOS DE AGUA SANTA,RIO VERDE,R0
159,PASTAZA,H0783,OZOGOCHE EN LOS LAGOS,-2.251111,-78.6,3756,0,9031172,,CHIMBORAZO,ALAUSI,ACHUPALLAS,R0
160,PASTAZA,H0785,CHIBUNGA EN CALPI,-1.6515085163668,-78.7506751948217,3020,143034,9029223,RIO CHIBUNGA,CHIMBORAZO,RIOBAMBA,CALPI,R0
161,PASTAZA,H0786,GUAMOTE AJ CEBADAS,-1.877917,-78.634222,2840,143355,9030020,RIO GUAMOTE,CHIMBORAZO,GUAMOTE,CEBADAS,R0
162,PASTAZA,H0787,ALAO EN HDA.ALAO,-1.877083,-78.511765,3200,143261,9029868,RIO ALAO,CHIMBORAZO,RIOBAMBA,PUNGALA,R0
163,PASTAZA,H0789,GUARGUALLA AJ CEBADAS,-1.869583,-78.60625,2828,143284,9030110,RIO HUARGALLA,CHIMBORAZO,GUAMOTE,CEBADAS,R0
164,PASTAZA,H0790,CEBADAS AJ GUAMOTE,-1.89625,-78.640417,2840,143602,9030588,RIO CEBADAS,CHIMBORAZO,GUAMOTE,CEBADAS,R0
165,PASTAZA,H0791,BALSACON EN SAN ANDRES,-1.572522,-78.714584,3112,0,9028882,RIO GUANO,CHIMBORAZO,GUANO,SAN ANDRES,R0
166,PASTAZA,H0792,CUTUCHI AJ YANAYACU,-1.064583,-78.602917,2582,142048,9026971,RIO CUTUCHI,COTOPAXI,SALCEDO,SAN MIGUEL,R0
167,PASTAZA,H0793,NAGSICHE PLTA.ELEC.CUSUBAMBA,-1.064454,-78.691954,2962,142038,9026947,RIO NAGSICHE,COTOPAXI,SALCEDO,CUSUBAMBA,R0
168,PASTAZA,H0795,NEGRO AJ PUMACUNCHI,-0.777916660371272,-78.6909170708789,3060,141836,9026501,RIO PUMACUCHI,COTOPAXI,LATACUNGA,TOACASO,R0
169,PASTAZA,H0796,YANAYACU EN PTE.PUCARA,-1.08374999325052,-78.4587500055987,3095,142074,9027022,RIO YANAYACU,TUNGURAHUA,SANTIAGO DE PILLARO,SAN JOSE DE POALO,R0
170,PASTAZA,H0797,PANSACHI EN HDA.BAYOS,-0.810278,-78.464444,3574,0,9026111,RIO TULUGCHI,COTOPAXI,LATACUNGA,ALAQUEZ,R0
171,PASTAZA,H0798,PASTAZA AJ ENCANTO,-1.427917,-78.177917,1150,142942,9029024,RIO PASTAZA,TUNGURAHUA,BANOS DE AGUA SANTA,RIO NEGRO,R0
172,PASTAZA,H0800,PASTAZA EN BANOS,-1.39375,-78.424583,1841,142552,9028091,RIO PASTAZA,TUNGURAHUA,BANOS DE AGUA SANTA,BANOS DE AGUA SANTA,R0
173,PASTAZA,H0801,AMBATO EN AMBATO,-1.26124999346478,-78.6626469096447,2680,142432,9027591,RIO AMBATO,TUNGURAHUA,AMBATO,QUISAPINCHA,R0
174,PASTAZA,H0817,PATATE DJ AMBATO,-1.234651,-78.536184,2243,142550,9028087,RIO PATATE,TUNGURAHUA,SANTIAGO DE PILLARO,EMILIO MARIA TERAN (RUMIPAMBA),R0
175,PASTAZA,H0826,CHAMBO EN HAD.CAHUAJI,-1.455833,-78.5075,2295,142718,9028483,RIO CHAMBO,CHIMBORAZO,PENIPE,BILBAO,R0
176,PASTAZA,H0839,MUYO  AJ PASTAZA,-1.36858569609188,-78.4027523753106,1700,142528,9028041,RIO VERDE CHICO,TUNGURAHUA,BANOS DE AGUA SANTA,ULBA,R0
177,PASTAZA,H0854,CUTUCHI EN CASPI,-0.74375,-78.607083,2930,141776,9025994,RIO CUTUCHI,COTOPAXI,LATACUNGA,MULALO,R0
178,PASTAZA,H0857,ILLUCHI AJ CUTUCHI (CVA AMBATO),-0.982917,-78.602083,2712,0,9026657,RIO LLUCHI,COTOPAXI,LATACUNGA,BELISARIO QUEVEDO (GUANAILIN),R0
179,PASTAZA,H0860,AMBATO EN MARCOPAMBA,-1.28291666020071,-78.741250006056,2960,142432,9027661,RIO AMBATO,TUNGURAHUA,AMBATO,SAN FERNANDO,R0
180,PASTAZA,H0863,ALAQUEZ EN PUENTE (LAIGUA),-0.860503558094908,-78.6071702368455,0,141777,9026346,RIO ALAQUEZ,COTOPAXI,LATACUNGA,ALAQUEZ,R0
181,SANTIAGO,H0883,TUTANANGOZA EN SUCUA,-2.46541665955525,-78.1762500060398,1572,144276,9032142,RIO TUTANANGOSA,MORONA SANTIAGO,SUCUA,ASUNCION,R0
182,SANTIAGO,H0885,NANGARITZA AJ ZAMORA,-3.919594,-78.680417,870,147503,9038185,RIO NANGARITZA,ZAMORA CHINCHIPE,PAQUISHA,PAQUISHA,R0
183,SANTIAGO,H0886,SABANILLA AJ ZAMORA,-4.037917,-79.008747,1080,147035,9038539,RIO SABANILLA,ZAMORA CHINCHIPE,ZAMORA,SABANILLA,R0
184,SANTIAGO,H0887,YACUAMBI AJ ZAMORA,-3.915418,-78.849481,961,146779,9037867,RIO YACUAMBI,ZAMORA CHINCHIPE,ZAMORA,GUADALUPE,R0
185,SANTIAGO,H0888,ZAMORA DJ S.FRANCISCO,-3.955417,-79.027917,1590,146999,9038312,RIO ZAMORA,ZAMORA CHINCHIPE,ZAMORA,SABANILLA,R0
186,SANTIAGO,H0889,ZAMORA DJ SABANILLA (EN ZAMORA),-4.06375,-78.95125,902,147071,9038463,RIO ZAMORA,ZAMORA CHINCHIPE,ZAMORA,ZAMORA,R0
187,SANTIAGO,H0890,ZAMORA D.J. NANGARITZA,-3.764583,-78.64125,890,146438,9037137,RIO ZAMORA,ZAMORA CHINCHIPE,YANTZAZA,LOS ENCUENTROS,R0
188,SANTIAGO,H0892,MAZAR AJ PAUTE,-2.57375,-78.64625,2126,144412,9032447,RIO MAZAR,CANAR,AZOGUES,RIVERA,R0
189,SANTIAGO,H0893,YANUNCAY AJ TARQUI,-2.91412813756202,-79.0117051942688,2500,145043,9033988,RIO YANUNCAY,AZUAY,CUENCA,CUENCA,R0
190,SANTIAGO,H0894,PAUTE EN PAUTE(DJ GUALACEO),-2.761291,-78.739625,2104,144847,9033441,RIO PAUTE,AZUAY,PAUTE,DUG DUG,R0
191,SANTIAGO,H0895,TOMEBAMBA EN MONAY,-2.896224,-78.967885,2353,144934,9033646,RIO TOMEBAMBA,AZUAY,CUENCA,CUENCA,R0
192,SANTIAGO,H0896,MATADERO EN SAYAUSI,-2.878003,-79.068664,2602,144933,9033645,RIO AMARILLO,AZUAY,CUENCA,SAN JOAQUIN,R0
193,SANTIAGO,H0898,PAUTE DJ PALMIRA,-2.56328364933158,-78.5582836618541,2100,144638,9032557,RIO PAUTE,CANAR,AZOQUES,RIVERA,R0
194,SANTIAGO,H0899,SAN FRANCISCO EN GUALACEO,-2.895417,-78.77125,2400,0,9033647,RIO SAN FRANCISCO,AZUAY,GUALACEO,LUIS CORDERO VEGA,R0
195,SANTIAGO,H0900,PAUTE AJ DUDAS,-2.689604,-78.624579,2000,144596,9032911,RIO PAUTE,AZUAY,SEVILLA DE ORO,PALMAS,R0
196,SANTIAGO,H0901,CANAL SAYMIRIN,-2.76030633153214,-79.0120833388817,2900,144885,9033537,RIO MACHANGARA,AZUAY,CUENCA,CHECA,R0
197,SANTIAGO,H0902,DUDAS EN PINDILIG,-2.62875,-78.670417,2450,144478,9032588,RIO DUDAS,CANAR,AZOGUES,PINDILIG,R0
198,SANTIAGO,H0905,MACHANGARA AJ CHULCO,-2.73642458091518,-79.0037500057574,2915,0,9033537,RIO MACHANGARA,AZUAY,CUENCA,CHECA,R0
199,SANTIAGO,H0906,JUVAL AJ PAUTE,-2.4787499930245,-78.6029166720615,1950,144344,9032294,RIO JUVAL,CANAR,AZOGUES,RIVERA,R0
200,SANTIAGO,H0907,NAMANGOZA DJ UPANO,-2.762083,-78.270417,410,144746,9033249,RIO NAMANGOZA,MORONA SANTIAGO,SANTIAGO,SAN LUIS DE EL ACHO,R0
201,SANTIAGO,H0908,UPANO DJ. TUTAMANGOZA,-2.63625,-78.19625,559,144658,9032761,RIO UPANO,MORONA SANTIAGO,LOGRONO,LOGRONO,R0
202,SANTIAGO,H0909,PAUTE AJ UPANO,-2.75458332627823,-78.2812500057407,413,144657,9033058,RIO NAMANGOZA,MORONA SANTIAGO,SANTIAGO,SANTIAGO DE MENDEZ,R0
203,SANTIAGO,H0912,YACUAMBI EN LA PAZ,-3.730417,-78.885963,958,146477,9037205,RIO YACUAMBI,ZAMORA CHINCHIPE,YACUAMBI,LA PAZ,R0
204,SANTIAGO,H0913,PALMIRA AJ PAUTE,-2.48958332604088,-78.5387500059269,1910,0,9032324,RIO PALMIRA,CANAR,AZOGUES,RIVERA,R0
205,SANTIAGO,H0917,PAUTE DJ LLAVIRCAY,-2.644444444,-78.6170833394507,0,144596,9032911,RIO PAUTE,AZUAY,SEVILLA DE ORO,PALMAS,R0
206,SANTIAGO,H0918,PAUTE AJ CARDENILLO,-2.57208332660517,-78.4845833388228,1130,144638,9032557,RIO PAUTE,AZUAY,SEVILLA DE ORO,AMALUZA,R0
207,SANTIAGO,H0927,CHUCHUMBLETZA AJ ZAMORA,-3.5370833260544,-78.5337500055134,850,146156,9036525,RIO CHUCHUMBELTZA,ZAMORA CHINCHIPE,EL PANGUI,EL GUISME,R0
208,SANTIAGO,H0929,COLLAY AJ PAUTE,-2.737538,-78.644124,2110,144776,9033472,RIO COLLAY,AZUAY,SEVILLA DE ORO,PALMAS,R0
209,SANTIAGO,H0931,GUALACEO AJ PAUTE,-2.867917,-78.77125,2148,145105,9033577,RIO GUALACEO,AZUAY,GUALACEO,MARIANO MORENO,R0
210,SANTIAGO,H0932,BURGAY AJ DELEG,-2.82159,-78.874918,2240,144810,9033331,RIO BURGAY,AZUAY,PAUTE,SAN CRISTOBAL,R0
211,SANTIAGO,H0942,TARQUI DJ SHUCAY,-2.950661,-79.046494,2510,145174,9033821,RIO SHUCAY,AZUAY,CUENCA,BANOS,R0
212,PASTAZA,H0947,ALAQUEZ DJ BARRANCAS TOLUGCHE,-0.831107616590431,-78.5486076284358,3205,141777,9026346,RIO ALAQUEZ,COTOPAXI,LATACUNGA,ALAQUEZ,R0
213,PASTAZA,H0954,CUTUCHI EN LASSO(DSF.ILESA),-0.755416660412583,-78.607916672475,2780,141776,9025994,RIO CUTUCHI,COTOPAXI,LATACUNGA,MULALO,R0
214,PASTAZA,H0961,CUTUCHI CA S.A.DE CALLO,-0.74375,-78.607083,2820,141776,9025994,RIO CUTUCHI,COTOPAXI,LATACUNGA,MULALO,R0
215,CHINCHIPE,H0966,MAYO AJ QDA.ZUMBAYACU,-4.87375,-79.087083,0,148758,9042283,RIO MAYO,ZAMORA CHINCHIPE,CHINCHIPE,CHITO,R0
216,Portoviejo,H1081,PORTOVIEJO EN PICOAZA,-1.027083,-80.479582,48,142193,9027275,RIO PORTOVIEJO,MANABI,PORTOVIEJO,PORTOVIEJO,R0
217,Zapotal,H1085,CLEMENTINA EN CLEMENTINA,-1.704685,-79.389685,0,143003,9029165,,LOS RIOS,BABAHOYO,LA UNION,R0
218,Zapotal,H1087,VINCES EN LA BOCANA DE ABAJO,-1.874583,-79.737917,0,143295,9029886,,GUAYAS,SALITRE,LA VICTORIA,R0
219,Zapotal,H1089,SAMBORONDON EN SAMBORONDON,-1.964583,-79.71625,0,143459,9030272,RIO BABAHOYO,GUAYAS,SAMBORONDON,SAMBORONDON,R0
220,Santiago,H1090,RIO MATADERO EN CHIRIMACHAY,-2.799693,-79.159105,3260,144933,9033462,,AZUAY,CUENCA,SAYAUSI,R0
221,CATAMAYO,H1095,VICIN,-4.274544,-80.110377,311,147498,9039410,RIO CATAMAYO,LOJA,CELICA,SABANILLA,R0
222,CHIRA,H1098,PISCOBAMBA EN MOYOCOCHA,-4.29375,-79.272083,1490,147640,9039727,RIO PISCOBAMBA,LOJA,LOJA,VILCABAMBA (VICTORIA),R0
223,Esmeraldas,H1101,PACHIJAL A.J. GUAYLLABAMBA,0.164583,-78.93625,520,140447,9023424,RIO PACHIJAL,PICHINCHA,DISTRITO METROPOLITANO DE QUITO,PACTO,R0
224,Esmeraldas,H1102,CAONI A.J. BLANCO,0.120417,-79.254583,140,140400,9023158,RIO CAONI,PICHINCHA,PUERTO QUITO,PUERTO QUITO,R0
225,Esmeraldas,H1103,MULAUTE D.J. COCANIGUAS,-0.137917,-79.115417,520,0,9023944,RIO MEME GRANDE,SANTO DOMINGO DE LOS TSACHILAS,SANTO DOMINGO,SANTO DOMINGO DE LOS COLORADOS,R0
226,ESMERALDAS,H1118,QUININDE EN MATAMBA,0.082917,-79.597178,105,140510,9023250,RIO QUININDE,ESMERALDAS,QUININDE,ROSA ZARATE (QUININDE),R0
227,JUBONES,H1119,RIRCAY D.J. GIRAN,-3.25125,-79.214173,1110,145676,9035149,RIO RIRCAY,AZUAY,GIRON,ASUNCION,R0
228,ARENILLAS,H1120,RASPA EN ASERRIO,-3.399583,-79.807083,80,145909,9035869,RIO SAN AGUSTIN,EL ORO,PASAJE,BUENAVISTA,R0
229,CARCHI,H1125,CHALPATAN,0.732778,-77.802778,3268,0,9021237,,CARCHI,TULCAN,TUFINO,R0
230,NAPO,H1133,AGUARICO EN NUEVA LOJA (LA GABARRA),0.042336,-76.809003,299,140563,9023597,,SUCUMBIOS,LAGO AGRIO,NUEVA LOJA,R0
231,NAPO,H1134,COCA EN SAN SEBASTIAN,-0.342083,-77.007083,320,141167,9024789,RIO COCA,ORELLANA,JOYA DE LOS SACHAS,SAN SEBASTIAN DEL COCA,R0
232,NAPO,H1135,NAPO EN FRANCISCO DE ORELLANA,-0.473256,-76.979088,330,141183,9025044,,ORELLANA,ORELLANA,PUERTO FRANCISCO DE ORELLANA (COCA),R0
233,NAPO,H1136,NAPO EN NUEVO ROCAFUERTE,-0.918551,-75.397282,180,141798,9026410,,ORELLANA,AGUARICO,NUEVO ROCAFUERTE,R0
234,CAYAPAS,H1139,SANTIAGO EN PTE. CARRETERA,1.072083,-78.901561,9,139171,9020332,RIO SANTIAGO,ESMERALDAS,ELOY ALFARO,MALDONADO,R0
235,CAYAPAS,H1140,CAYAPAS EN PTE. CARRETERA,1.057577,-78.984583,10,139257,9020565,RIO CAYAPAS,ESMERALDAS,ELOY ALFARO,BORBON,R0
236,Taura,H1141,BULUBULU ANTES DEL BY-PASS,-2.346586,-79.356747,40,144038,9031564,RIO BULUBULU,GUAYAS,EL TRIUNFO,EL TRIUNFO,R0
237,CHIRA,H1142,CATAMAYO EN PTE. VICIN,-4.269275,-80.105416,257,147498,9039410,RIO CATAMAYO,LOJA,ZAPOTILLO,GARZAREAL,R0
238,SANTIAGO,H1146,ZAMORA EN PUENTE JIMBILLA,-3.862083,-79.190881,2381,146744,9037783,RIO ZAMORA,LOJA,LOJA,JIMBILLA,R0
239,SANTIAGO,H1149,SANTIAGO EN BATALLON SANTIAGO,-3.052917,-78.012856,420,145188,9034237,RIO SANTIAGO,MORONA SANTIAGO,TIWINTZA,SANTIAGO,R0
240,COJIMIES,H5007,ZARUMILLA EN CARCABON,-3.625833,-80.19,40,146238,9036652,,EL ORO,ARENILLAS,CARCABON,R0
241,GUAYAS,H0378,LAS JUNTAS DJ SINDE (UMBE DJ PIN.),-1.207917,-79.292917,150,142363,9027713,RIO UMBE,BOLIVAR,LAS NAVES,LAS NAVES,R0
242,GUAYAS,H0388,NUEVO DD VINCES,-1.58625,-79.77375,19,143295,9029256,RIO VINCES,LOS RIOS,VINCES,VINCES,R0
243,GUAYAS,H0404,PULA EN YURIMA,-1.80625,-79.917083,5,143405,9029952,RIO PULA,GUAYAS,DAULE,LAUREL,R0
244,GUAYAS,H0412,BACHILLERO EN PTE.CARRETERA,-1.85125,-80.10375,0,143356,9029792,RIO BACHILLERO,GUAYAS,LOMAS DE SARGENTILLO,LOMAS DE SARGENTILLO,R0
245,ZAPOTAL,H0433,NUEVO EN EL COROZO,-2.023751,-80.473749,0,143554,9030492,RIO BALSAS,SANTA ELENA,SANTA ELENA,COLONCHE,R0
246,ZAPOTAL,H0435,GRANDE EN FEBRES CORDERO,-1.945658,-80.615615,0,0,9030333,,SANTA ELENA,SANTA ELENA,COLONCHE,R0
247,ZAPOTAL,H0436,SALANGUILLO EN SALANGUILLO (JAVITA),-1.965415,-80.563744,0,0,9030433,RIO GUANGALA,SANTA ELENA,SANTA ELENA,COLONCHE,R0
248,TAURA,H0446,BULUBULU EN MJ.CALLE INAMHI,-2.332916,-79.39125,50,144038,9031564,RIO BULUBULU,GUAYAS,EL TRIUNFO,EL TRIUNFO,R0
249,,H0710,CHALUPAS EN CHALUPAS(AJ HUAHUI),-0.841249993362836,-78.2787500059831,3570,0,9026168,RIO CHALUPAS,NAPO,TENA,PANO,R0
250,NAPO,H1093,PUERTO FRANCISCO DE ORELLANA,-0.47124999373231,-76.9533333333597,298,141168,9025013,,ORELLANA,FRANCISCO DE ORELLANA,PUERTO FRANCISCO DE ORELLANA,R0
251,SANTIAGO,H1106,TARQUI A.J. YANUNCAY (3 PUENTES),-2.9179165688451,-79.0170832151179,2451,145174,9033821,RIO TARQUI,AZUAY,CUENCA,CUENCA,R0
252,SANTIAGO,H1114,LAS LAGRIMAS RIO ZAMORA (PUENTE),-3.94820323836967,-79.2187500055728,1996,146874,9038119,RIO ZAMORA,LOJA,LOJA,LOJA,R0
253,CHONE,H1121,GRANDE A.J. MOSQUITO (NUEVA),-0.733749993686763,-79.95083333,0,0,9025820,RIO GRANDE,MANABI,CHONE,CHONE,R0
254,GUAYAS,H0417,VINCES EN HDA.CASA VINCES,-1.30458332665808,-79.5737500052888,0,142509,9027991,RIO QUEVEDO,LOS RIOS,MOCACHE,MOCACHE,R0
255,PUYANGO,H0588,AMARILLO EN PORTOVELO,-3.71233100035502,-79.6123319951464,660,146382,9036977,RIO AMARILLO,EL ORO,PORTOVELO,PORTOVELO,R0
256,NAPO,H0712,AZUELA AJ SAN PEDRO,0.081250005763879,-77.9122771358758,3417,0,9023426,RIO AZUELA,SUCUMBIOS,GONZALO PIZARRO,EL REVENTADOR,R0
257,NAPO,H0715,QUIJOS AJ BOMBON,-0.285000001197157,-77.747916671709,1380,140956,9024502,RIO QUIJOS,NAPO,EL CHACO,GONZALO DIAZ DE PINEDA,R0
258,PASTAZA,H0788,PUELA AJ CHAMBO,-1.512222222,-78.47472222,2475,142738,9028651,RIO PUELA,CHIMBORAZO,PENIPE,EL ALTAR,R0
259,PASTAZA,H0863,ALAQUEZ EN PUENTE (LAIGUA),-0.860503558094908,-78.6071702368455,0,141777,9026346,RIO ALAQUEZ,COTOPAXI,LATACUNGA,ALAQUEZ,R0
260,SANTIAGO,H0881,BOMBOIZA AJ ZAMORA,-3.41520634846196,-78.4960357097528,549,145878,9035769,RIO BOMBOIZA,MORONA SANTIAGO,GUALAQUIZA,GUALAQUIZA,R0
261,SANTIAGO,H0884,ZAMORA AJ BOMBOIZA,-3.41308907835814,-78.4802442540657,548,146025,9036156,RIO ZAMORA,MORONA SANTIAGO,GUALAQUIZA,BOMBOIZA,R0
262,PASTAZA,H1143,AMBATO EN MANZANAHUAICO,-1.27958332657806,-78.7608541780227,3150,142432,9027661,RIO AMBATO,TUNGURAHUA,AMBATO,SAN FERNANDO (PASA SAN FERNANDO),R0
