basin;code;name;latitude;longitude;elevation;comid;river;location1;location2;alert
MIRA;H0011;MIRA EN LITA;0.875417;-78.450417;475;9021183;Mira;Carchi;Mira;R0
MIRA;H0013;BLANCO AJ MIRA;0.762482;-78.255874;890;9021184;Blanco;Imbabura;Ibarra;R0
MIRA;H0015;CHOTA EN PTE.CARRETERA;0.476689;-78.075339;1569;9022030;Chota;Carchi;Mira;R0
MIRA;H0016;APAQUI AJ CHOTA;0.439196;-77.940804;1715;9022137;Rumichaca;Carchi;Bolivar;R0
MIRA;H0017;APAQUI D GRUTA LA PAZ #3;0.497577;-77.849086;2323;9022137;Rumichaca;Carchi;Montufar;R0
MIRA;H0018;YAIL AJ APAQUI;0.492083;-77.855417;2500;9022137;Rumichaca;Carchi;Montufar;R0
MIRA;H0022;SAN GABRIEL EN PTE.CARRETERA;0.57557;-77.826378;2850;9021926;San Gabriel;Carchi;Montufar;R0
MIRA;H0023;AMBI DJ CARIYACU;0.372917;-78.214583;2015;9022305;Ambi;Imbabura;San Miguel De Urcuqui;R0
MIRA;H0024;BLANCO EN PTE.CARRETERA;0.250832;-78.300832;2573;9022698;Blanco;Imbabura;Otavalo;R0
MIRA;H0026;ITAMBI EN L.S.PABLO;0.201636;-78.209575;2648;9022897;Jatunyacu;Imbabura;Otavalo;R0
MIRA;H0045;APAQUI DJ MINAS;0.5368;-77.7832;2650;9021927;Rumichaca;Carchi;Montufar;R0
MIRA;H0064;EL ANGEL EN PTE.AYORA;0.626861;-77.950417;2850;9022031;El Angel;Carchi;Espejo;R0
CARCHI;H0091;GRANDE AJ JATIVA;0.804167;-77.846111;3120;9021064;Grande;Carchi;Tulcan;R0
CARCHI;H0093;BOBO EN PLTA.ELEC.TULCAN;0.81375;-77.749013;2880;9021237;Bobo;Carchi;Tulcan;R0
ESMERALDAS;H0136;ALAMBI EN CHURUPAMBA;0.150418;-78.680417;920;9023111;Alambi;Pichincha;Distrito Metropolitano De Quito;R0
ESMERALDAS;H0138;BLANCO D.J. TOACHI(PTE.UNICOOP);-0.087924;-79.280403;284;9023841;Blanco;Santo Domingo;Santo Domingo;R0
ESMERALDAS;H0139;BLANCO EN LOS BANCOS;0.007088;-78.904788;795;9023794;Blanco;Pichincha;San Miguel De Los Bancos;R0
ESMERALDAS;H0141;CANAL TABACUNDO;0.149722;-78.023333;0;9023321;Tabacundo;Pichincha;Cayambe;R0
ESMERALDAS;H0143;GRANOBLES AJ GUACHALA;0.014166;-78.172917;2750;9023477;Granobles;Pichincha;Pedro Moncayo;R0
ESMERALDAS;H0144;GUACHALA AJ GRANOBLES;0.009601;-78.158284;2740;9023553;Guachala;Pichincha;Cayambe;R0
ESMERALDAS;H0145;GUAYLLABAMBA DJ CUBI;0.092975;-78.429573;1540;9023398;Guayllabamba;Pichincha;Distrito Metropolitano De Quito;R0
ESMERALDAS;H0146;GUAYLLABAMBA DJ ALAMBI;0.235415;-78.743751;625;9022789;Guayllabamba;Imbabura;Cotacachi;R0
ESMERALDAS;H0147;GUAYLLABAMBA DJ PACHIJAL;0.220417;-78.999583;410;9022868;Guayllabamba;Imbabura;Cotacachi;R0
ESMERALDAS;H0148;GUAYLLABAMBA DJ PISQUE;0.013261;-78.40625;1690;9023624;Guayllabamba;Pichincha;Distrito Metropolitano De Quito;R0
ESMERALDAS;H0149;GUAYLLABAMBA EN PTE.CHACAPATA;0.180417;-78.640417;860;9023154;Guayllabamba;Pichincha;Distrito Metropolitano De Quito;R0
ESMERALDAS;H0150;INTAG DJ PAMPLONA;0.220005;-78.621661;1000;9022801;Intag;Imbabura;Otavalo;R0
ESMERALDAS;H0153;LELIA DJ CRISTAL;-0.37264;-79.031693;860;9024554;Lelia;Santo Domingo;Santo Domingo;R0
ESMERALDAS;H0155;PILATON DJ SACALZON(EN LA TOMA);-0.362917;-78.835417;1130;9024662;Pilaton;Pichincha;Mejia;R0
ESMERALDAS;H0156;PILATON AJ TOACHI;-0.312917;-78.932917;890;9024599;Pilaton;Pichincha;Mejia;R0
ESMERALDAS;H0158;PITA AJ SALTO;-0.571085;-78.42625;3550;9025440;Pita;Pichincha;Mejia;R0
ESMERALDAS;H0159;SAN PEDRO EN MACHACHI;-0.460417;-78.549583;2680;9025406;San Pedro;Pichincha;Mejia;R0
ESMERALDAS;H0160;SARAPULLO AJ TOACHI;-0.393892;-78.895275;1020;9025212;Sarapullo;Pichincha;Mejia;R0
ESMERALDAS;H0161;TOACHI AJ PILATON;-0.318166;-78.95375;820;9024683;Toachi;Santo Domingo De Los Tsachilas;Santo Domingo;R0
ESMERALDAS;H0163;TOACHI DJ SARAPULLO;-0.364041;-78.910708;950;9024683;Toachi;Pichincha;Mejia;R0
ESMERALDAS;H0166;TOACHI EN LAS PAMPAS;-0.440417;-78.95125;1110;9024920;Toachi;Cotopaxi;Sigchos;R0
ESMERALDAS;H0167;TOACHI EN S.D.DE LOS COLORADOS;-0.240417;-79.13875;420;9024473;Toachi;Santo Domingo De Los Tsachilas;Santo Domingo;R0
ESMERALDAS;H0168;ESMERALDAS DJ SADE;0.531547;-79.423214;51;9022024;Esmeraldas;Esmeraldas;Quininde;R0
ESMERALDAS;H0170;GUAYLLABAMBA AJ BLANCO;0.44236;-79.40014;90;9022479;Guayllabamba;Esmeraldas;Quininde;R0
ESMERALDAS;H0172;TEAONE DJ TABIAZO;0.843128;-79.703128;16;9021015;Tiaone;Esmeraldas;Esmeraldas;R0
ESMERALDAS;H0173;TEAONE AJ ESMERALDAS;0.85875;-79.705417;9;9021015;Tiaone;Esmeraldas;Esmeraldas;R0
ESMERALDAS;H0177;QUININDE EN QUININDE;0.329177;-79.477083;110;9022535;Quininde;Esmeraldas;Quininde;R0
ESMERALDAS;H0188;PILATON D.J. CHITOA (EN LA ESPERIE);-0.34875;-78.854583;900;9024599;Pilaton;Santo Domingo De Los Tsachilas;Santo Domingo;R0
JAMA;H0206;JAMA EN JAMA;-0.214583299;-80.25873981;6;9024186;Jama;Manabi;Jama;R0
ESMERALDAS;H0216;BUA AJ QUININDE;-0.022083;-79.603742;0;9023956;Bua;Esmeraldas;Quininde;R0
CHONE;H0229;CARRIZAL EN CALCETA;-0.845298;-80.161369;47;9026308;Carrizal;Manabi;Bolivar;R0
CHONE;H0230;GARRAPATA AJ CHONE;-0.664134;-80.04375;50;9025601;Garrapata;Manabi;Chone;R0
CHONE;H0232;MOSQUITO AJ GRANDE;-0.667917;-80.025417;55;9025573;Mosquito;Manabi;Chone;R0
CHONE;H0233;JUNIN DJ EST.PALMAR;-0.904583;-80.182083;20;9026436;Mosca;Manabi;Junin;R0
CHONE;H0235;CHONE EN CHONE;-0.694701;-80.094466;24;9025666;Chone;Manabi;Pedernales;R0
PORTOVIEJO;H0266;PORTOVIEJO EN H.VASQUEZ (GUARUMO);-1.111272;-80.225403;100;9027387;Portoviejo;Manabi;Santa Ana;R0
PORTOVIEJO;H0267;PORTOVIEJO EN STA.ANA;-1.20906;-80.365107;62;9027406;Portoviejo;Manabi;Santa Ana;R0
PORTOVIEJO;H0272;CHICO AJ PORTOVIEJO;-0.97375;-80.422917;35;9026872;Chico;Manabi;Portoviejo;R0
PORTOVIEJO;H0273;LODANA EN PTE.CARRETERA;-1.180417;-80.387083;70;9027415;Lodana;Manabi;Santa Ana;R0
GUAYAS;H0326;BABA DJ TOACHI-DCP;-0.669583;-79.386243;125;9026380;Baba;Los Rios;Valencia;R0
GUAYAS;H0327;CAJONES EN KM.18 1/2;-0.245556;-79.325278;600;9024868;Cajones;Santo Domingo De Los Tsachilas;Santo Domingo;R0
GUAYAS;H0329;PILALO EN LA ESPERANZA;-0.887917;-79.06875;920;9026419;Pilalo;Cotopaxi;Sigchos;R0
GUAYAS;H0330;CHANCHAN EN KM.90+180;-2.22125;-79.134583;326;9031392;Chanchan;Chimborazo;Cumanda;R0
GUAYAS;H0331;CHIMBO EN SAN LORENZO;-1.666635;-79.005417;2419;9029083;Chimbo;Bolivar;Chimbo;R0
GUAYAS;H0332;CANAL CHIMBO EN SAN LORENZO;-1.667083;-79.005417;2419;9029083;Chimbo;Bolivar;Guaranda;R0
GUAYAS;H0333;SAN LORENZO EN SAN LORENZO;-1.68875;-78.999566;2464;9029110;San Lorenzo;Bolivar;Guaranda;R0
GUAYAS;H0334;DE CHIMA AJ LAS PESQ.(SICOTO AJ);-1.856873;-79.070419;2100;9030145;De la China;Bolivar;San Miguel;R0
GUAYAS;H0335;LAS PESQUERIAS AJ DE CHIMA;-1.869948;-79.076615;2070;9030145;De la China;Bolivar;San Miguel;R0
GUAYAS;H0337;PANGOR AJ CHIMBO;-1.932814;-79.001975;1480;9030052;Pangor;Chimborazo;Colta;R0
GUAYAS;H0338;CHIMBO DJ PANGOR;-1.938068;-79.008639;1452;9030564;Chimbo;Bolivar;Chillanes;R0
GUAYAS;H0340;CHIMBO EN BUCAY;-2.202919;-79.138071;297;9031012;Chimbo;Chimborazo;Cumanda;R0
GUAYAS;H0343;ECHEANDIA EN ECHEANDIA;-1.42875;-79.28125;425;9028271;Soloma;Bolivar;Echeandia;R0
GUAYAS;H0344;UMBE EN QUINSALOMA;-1.209583;-79.309583;0;9027713;Umbe;Bolivar;Las Naves;R0
GUAYAS;H0345;ZAPOTAL EN CATARAMA(CATARAMA EN);-1.57125;-79.44875;40;9028791;Las Piedras;Los Rios;Urdaneta;R0
GUAYAS;H0346;ZAPOTAL EN LECHUGAL;-1.398333;-79.429167;40;9028108;Zapotal;Los Rios;Ventanas;R0
GUAYAS;H0347;QUEVEDO EN QUEVEDO;-1.007915;-79.457071;125;9027991;Quevedo;Los Rios;Quevedo;R0
GUAYAS;H0348;VINCES EN VINCES-DCP;-1.547083;-79.75;41;9029256;Vinces;Los Rios;Vinces;R0
GUAYAS;H0351;DAULE EN PICHINCHA;-1.04875;-79.817083;70;9026890;Daule;Manabi;Pichincha;R0
GUAYAS;H0352;MACUL EN PTE.CARRETERA;-1.06625;-79.61625;54;9027907;Macul;Guayas;Empalme;R0
GUAYAS;H0359;PAJAN EN AGUA FRIA;-1.610417;-80.377083;323;9028982;Daule;Manabi;Pajan;R0
GUAYAS;H0363;DAULE EN BALZAR;-1.359974;-79.912918;30;9028567;Daule;Guayas;Balzar;R0
GUAYAS;H0365;DAULE EN LA CAPILLA;-1.699584;-79.994969;13;9029221;Daule;Guayas;Santa Lucia;R0
GUAYAS;H0371;SAN PABLO EN PALMAR;-1.830205;-79.437294;10;9029742;San Pablo;Los Rios;Montalvo;R0
GUAYAS;H0375;CHANCHAN DJ HUATAXI;-2.274583;-78.960417;1480;9031418;Chanchan;Chimborazo;Alausi;R0
GUAYAS;H0385;ANGAS AJ CHANCHAN;-2.302923;-79.061665;742;9031643;Angas;Canar;Canar;R0
GUAYAS;H0390;CHIMBO AJ MILAGRO INAMHI;-2.135417;-79.667083;30;9031142;Chimbo;Guayas;San Jacinto De Yaguachi;R0
GUAYAS;H0394;EMBARCADERO EN H.CLEM(POT-STA.ROSA);-1.70625;-79.393768;18;9029165;Embarcadero;Los Rios;Babahoyo;R0
GUAYAS;H0402;CONGO EN PTE.CARRETERA;-1.03875;-79.695417;30;9027610;Congo;Guayas;Empalme;R0
GUAYAS;H0414;TOACHI AJ BABA;-0.67625;-79.36125;151;9025671;Toachi;Santo Domingo De Los Tsachilas;Santo Domingo;R0
TAURA;H0447;BULUBULU AJ PAYO;-2.292917;-79.50125;40;9031564;Bulubulu;Guayas;El Triunfo;R0
TAURA;H0448;PAYO AJ BULUBULU;-2.281667;-79.504167;25;9031320;Payo;Guayas;Coronel Marcelino Mariduena;R0
CANAR;H0466;SILANTE EN INGAPIRCA;-2.539167;-78.881667;2709;9032257;Silante;Canar;Canar;R0
CANAR;H0467;VENDELECHE EN HDA.LA CURIA;-2.582084;-78.872916;3020;9032495;Vende Leche;Canar;Canar;R0
CANAR;H0468;SAN PEDRO EN INGAPIRCA;-2.583749;-78.843499;2700;9032405;San Pedro;Canar;Canar;R0
CANAR;H0471;CANAR DJ RAURA;-2.482744;-79.154411;870;9032090;Canar;Canar;Canar;R0
CANAR;H0472;CANAR EN PTO.INCA;-2.547498;-79.556665;25;9032436;Canar;Guayas;Naranjal;R0
BALAO;H0503;TENGUEL EN TENGUEL;-2.990416;-79.787;10;9033987;Tenguel;Guayas;Guayaquil;R0
BALAO;H0504;SIETE EN PTE.CARRETERA;-3.07674;-79.752545;13;9034278;Siete;Azuay;Camilo Ponce Enriquez;R0
BALAO;H0505;PAGUA EN PTE.CARRETERA;-3.08737;-79.758505;13;9034353;Pagua;El Oro;El Guabo;R0
BALAO;H0507;BONITO EN PTE.CARRETERA(AJ PAGUA);-3.106923;-79.766842;30;9034353;Bonito;El Oro;El Guabo;R0
BALAO;H0508;CHAGUANA EN PTE.CARRETERA;-3.20375;-79.797083;5;9035091;Chaguana;El Oro;El Guabo;R0
JUBONES;H0526;PAQUISHAPA EN PTE.CARRETERA;-3.617917;-79.211995;2206;9036512;Paquishapa;Loja;Saraguro;R0
JUBONES;H0527;LEON EN PTE.CARRETERA;-3.418841;-79.158829;2020;9035775;Leon;Azuay;Ona;R0
JUBONES;H0528;JUBONES DJ MINAS;-3.267083;-79.232917;1120;9035149;Rircay;Azuay;Santa Isabel;R0
JUBONES;H0529;JUBONES DJ S.FRANCISCO;-3.310405;-79.51124;712;9035285;Jubones;El Oro;Zaruma;R0
JUBONES;H0530;JUBONES EN USHCURRUMI;-3.32375;-79.605416;282;9035301;Jubones;El Oro;Pasaje;R0
JUBONES;H0531;CASACAY AJ JUBONES;-3.327083;-79.717083;134;9035579;Casacay;El Oro;Pasaje;R0
JUBONES;H0547;RIRCAY EN P.ALTO SALTANA;-3.30875;-79.512083;249;9035285;Jubones;Azuay;Pucara;R0
ARENILLAS;H0571;RASPA EN ASERRIO(BUENA VISTA);-3.397741;-79.807917;80;9035869;San Agustin;El Oro;Pasaje;R0
ARENILLAS;H0572;Caluguro ABT Canal de Riego;-3.502083326;-79.87875001;55;9036107;Calaguro;El Oro;Santa Rosa;R0
SANTA ROSA;H0573;SANTA ROSA EN EL VADO;-3.556667;-79.946667;80;9036369;Santa Rosa;El Oro;Santa Rosa;R0
ARENILLAS;H0574;ARENILLAS EN ARENILLAS;-3.565514;-80.048568;20;9036653;Estero Jumon;El Oro;Arenillas;R0
PUYANGO;H0586;Calera AJ Amarillo;-3.677916659;-79.64541667;680;9036976;La Calera;El Oro;Zaruma;R0
PUYANGO;H0587;PINDO A.J. AMARILLO;-3.76375;-79.635503;520;9037158;Pindo;El Oro;Portovelo;R0
PUYANGO;H0588;AMARILLO EN PORTOVELO;-3.712331;-79.612332;660;9036977;Amarillo;El Oro;Portovelo;R0
PUYANGO;H0589;PUYANGO AJ MARCABELI;-3.826255;-79.929569;349;9037435;Puyango;El Oro;Paltas;R0
PUYANGO;H0590;MARCABELI AJ PUYANGO;-3.811254;-79.93458;450;9037431;Marcabeli;El Oro;Marcabeli;R0
PUYANGO;H0591;PUYANGO EN CPTO.MILITAR (PTE.CARRETERA);-3.882917;-80.079827;300;9037858;Puyango;El Oro;Las Lajas;R0
PUYANGO;H0592;MOROMORO EN MOROMORO;-3.688333;-79.740833;800;9037455;Moromoro;El Oro;Pinas;R0
CHIRA;H0616;ALAMOR EN SAUCILLO(DJ CELICA);-4.25875;-80.19625;247;9039494;Alamor;Loja;Zapotillo;R0
CATAMAYO;H0620;Catamayo en Pte. Santa Rosa;-4.156666667;-79.86125001;640;9039050;Catamayo;Loja;Sozoranga;R0
CHIRA;H0621;JORUPE EN AMALUZA;-4.581285;-79.433684;1762;9040740;Amaluza;Loja;Espindola;R0
CATAMAYO;H0622;Malacatus en Malacatus;-4.217564522;-79.25339787;1657;9039213;Malacatos;Loja;Loja;R0
JUBONES;H0625;ALAMOR EN PTE.MERCADILLO;-4.032916;-80.009334;1080;9038824;Malatanga;Loja;Saraguro;R0
CATAMAYO;H0626;MACARA EN PTE. INTERNACIONAL;-4.392305;-79.963528;435;9039887;Macara;Loja;Macara;R0
CATAMAYO;H0628;CATAMAYO DJ GUAYABAL;-4.007083;-79.412077;1120;9038261;Catamayo;Loja;Catamayo;R0
AGUARICO;H0682;Due AJ Aguarico;0.027777778;-77.39045016;0;9023501;Due;Sucumbios;Gonzalo Pizarro;R0
NAPO;H0712;AZUELA AJ SAN PEDRO;0.081250006;-77.91227714;3417;9023426;Azuela;Sucumbios;Gonzalo Pizarro;R0
NAPO;H0714;COCA EN SAN RAFAEL;-0.101167;-77.578667;1160;9024121;Quijos;Napo;El Chaco;R0
NAPO;H0715;QUIJOS AJ BOMBON;-0.285;-77.747917;1380;9024502;Quijos;Napo;El Chaco;R0
NAPO;H0718;QUIJOS EN BAEZA;-0.456251;-77.885416;1770;9024983;Quijos;Napo;Quijos;R0
NAPO;H0719;QUIJOS DJ OYACACHI;-0.30616;-77.770326;1490;9024502;Quijos;Napo;El Chaco;R0
NAPO;H0720;MISAHUALLI EN COTUNDO;-0.84625;-77.79875;800;9026643;Misahualli;Napo;Archidona;R0
NAPO;H0721;JATUNYACU DJ ILOCULIN;-1.087917;-77.918865;570;9027000;Jatunyacu;Napo;Tena;R0
NAPO;H0722;YANAHURCO DJ VALLE;-0.694175;-78.283325;3590;9025708;Valle;Napo;Archidona;R0
NAPO;H0723;BORJA AJ QUIJOS;-0.437916661;-77.81875001;1620;9024980;Borja;Napo;Quijos;R0
NAPO;H0726;Coca AJ Malo;-0.152083327;-77.63208334;1250;9024121;Quijos;Napo;El Chaco;R0
NAPO;H0729;OYACACHI AJ QUIJOS;-0.32541666;-77.81041667;1520;9024515;Oyacachi;Napo;El Chaco;R0
NAPO;H0731;COSANGA AJ QUIJOS;-0.469583;-77.85875;1740;9025492;Cosanga;Napo;Quijos;R0
NAPO;H0733;QUIJOS AJ BORJA;-0.407083;-77.829166;1635;9024860;Quijos;Napo;Quijos;R0
NAPO;H0735;COCA EN CODO SINCLAIR;-0.197083327;-77.68375001;0;9024121;Quijos;Napo;El Chaco;R0
PASTAZA;H0764;CALAMACA DJ Q.HUARCUSACHA;-1.246389;-78.826111;3440;9027651;Calamaca;Tungurahua;Ambato;R0
PASTAZA;H0772;PUMACUNCHI EN H.PATOCOCHA;-0.870142768;-78.63125001;2650;9026501;Pumacunchi;Cotopaxi;Latacunga;R0
PASTAZA;H0773;ALAQUEZ AJ CUTUCHI(COL.S.RODR);-0.902083327;-78.62458334;2700;9026346;Alaquez;Cotopaxi;Latacunga;R0
PASTAZA;H0774;CUTUCHI EN LATACUNGA;-0.936249994;-78.61791667;2590;9026502;Cutuchi;Cotopaxi;Latacunga;R0
PASTAZA;H0775;PUMACUNCHI EN LATACUNGA;-0.896839789;-78.63125001;2600;9026501;Pumacunchi;Cotopaxi;Latacunga;R0
NAPO;H0776;CUNUYACU EN LATACUNGA;-0.929801355;-78.61980137;2585;9026442;Yanayacu;Cotopaxi;Latacunga;R0
PASTAZA;H0781;VERDE AJ PASTAZA;-1.400416;-78.29875;1495;9028088;Verde;Tungurahua;Banos De Agua Santa;R0
PASTAZA;H0783;OZOGOCHE EN LOS LAGOS;-2.251111;-78.6;3756;9031172;Osogoche;Chimborazo;Alausi;R0
PASTAZA;H0785;CHIBUNGA EN CALPI;-1.651508516;-78.75067519;3020;9029223;Chibunga;Chimborazo;Riobamba;R0
PASTAZA;H0786;GUAMOTE AJ CEBADAS;-1.877917;-78.634222;2840;9030020;Guamote;Chimborazo;Guamote;R0
PASTAZA;H0787;ALAO EN HDA.ALAO;-1.877083;-78.511765;3200;9029868;Alao;Chimborazo;Riobamba;R0
PASTAZA;H0788;PUELA AJ CHAMBO;-1.512222;-78.474722;2475;9028651;Puela;Chimborazo;Penipe;R0
PASTAZA;H0789;GUARGUALLA AJ CEBADAS;-1.869583;-78.60625;2828;9030110;Huargualla;Chimborazo;Guamote;R0
PASTAZA;H0790;CEBADAS AJ GUAMOTE;-1.89625;-78.640417;2840;9030588;Cebadas;Chimborazo;Guamote;R0
PASTAZA;H0791;BALSACON EN SAN ANDRES;-1.572522;-78.714584;3112;9028882;Guano;Chimborazo;Guano;R0
PASTAZA;H0792;CUTUCHI AJ YANAYACU;-1.064583;-78.602917;2582;9026971;Cutuchi;Cotopaxi;Salcedo;R0
PASTAZA;H0793;NAGSICHE PLTA.ELEC.CUSUBAMBA;-1.064454;-78.691954;2962;9026947;Nagsiche;Cotopaxi;Salcedo;R0
PASTAZA;H0795;NEGRO AJ PUMACUNCHI;-0.77791666;-78.69091707;3060;9026501;Pumacunchi;Cotopaxi;Latacunga;R0
PASTAZA;H0796;YANAYACU EN PTE.PUCARA;-1.083749993;-78.45875001;3095;9027022;Yanayacu;Tungurahua;Santiago De Pillaro;R0
PASTAZA;H0797;PANSACHI EN HDA.BAYOS;-0.810278;-78.464444;3574;9026111;Tulugchi;Cotopaxi;Latacunga;R0
PASTAZA;H0798;PASTAZA AJ ENCANTO;-1.427917;-78.177917;1150;9029024;Pastaza;Tungurahua;Banos De Agua Santa;R0
PASTAZA;H0800;PASTAZA EN BANOS;-1.39375;-78.424583;1841;9028091;Pastaza;Tungurahua;Banos De Agua Santa;R0
PASTAZA;H0801;AMBATO EN AMBATO;-1.261249993;-78.66264691;2680;9027591;Ambato;Tungurahua;Ambato;R0
PASTAZA;H0817;PATATE DJ AMBATO;-1.234651;-78.536184;2243;9028087;Patate;Tungurahua;Santiago De Pillaro;R0
PASTAZA;H0839;MUYO  AJ PASTAZA;-1.368585696;-78.40275238;1700;9028041;Verde Chico;Tungurahua;Banos De Agua Santa;R0
PASTAZA;H0854;CUTUCHI EN CASPI;-0.74375;-78.607083;2930;9025994;Cutuchi;Cotopaxi;Latacunga;R0
PASTAZA;H0857;ILLUCHI AJ CUTUCHI (CVA AMBATO);-0.982917;-78.602083;2712;9026657;Lluchi;Cotopaxi;Latacunga;R0
PASTAZA;H0860;AMBATO EN MARCOPAMBA;-1.28291666;-78.74125001;2960;9027661;Ambato;Tungurahua;Ambato;R0
PASTAZA;H0863;ALAQUEZ EN PUENTE (LAIGUA);-0.860503558;-78.60717024;0;9026346;Alaquez;Cotopaxi;Latacunga;R0
SANTIAGO;H0881;BOMBOIZA AJ ZAMORA;-3.415206;-78.496036;549;9035769;Bomboiza;Morona Santiago;Gualaquiza;R0
SANTIAGO;H0883;TUTANANGOSA EN SUCUA;-2.46541666;-78.17625001;1572;9032142;Tutanangosa;Morona Santiago;Sucua;R0
SANTIAGO;H0884;ZAMORA AJ BOMBOIZA;-3.413089;-78.480244;548;9036156;Zamora;Morona Santiago;Gualaquiza;R0
SANTIAGO;H0885;NANGARITZA AJ ZAMORA;-3.919594;-78.680417;870;9038185;Nangaritza;Zamora Chinchipe;Paquisha;R0
SANTIAGO;H0886;SABANILLA AJ ZAMORA;-4.037917;-79.008747;1080;9038539;Sabanilla;Zamora Chinchipe;Zamora;R0
SANTIAGO;H0887;YACUAMBI AJ ZAMORA;-3.915418;-78.849481;961;9037867;Yacuambi;Zamora Chinchipe;Zamora;R0
SANTIAGO;H0888;ZAMORA DJ S.FRANCISCO;-3.955417;-79.027917;1590;9038312;Zamora;Zamora Chinchipe;Zamora;R0
SANTIAGO;H0889;ZAMORA DJ SABANILLA (EN ZAMORA);-4.06375;-78.95125;902;9038463;Zamora;Zamora Chinchipe;Zamora;R0
SANTIAGO;H0890;ZAMORA D.J. NANGARITZA;-3.764583;-78.64125;890;9037137;Zamora;Zamora Chinchipe;Yantzaza;R0
SANTIAGO;H0892;MAZAR AJ PAUTE;-2.57375;-78.64625;2126;9032447;Mazar;Canar;Azogues;R0
SANTIAGO;H0893;YANUNCAY AJ TARQUI;-2.914128138;-79.01170519;2500;9033988;Yanuncay;Azuay;Cuenca;R0
SANTIAGO;H0894;PAUTE EN PAUTE(DJ GUALACEO);-2.761291;-78.739625;2104;9033441;Paute;Azuay;Paute;R0
SANTIAGO;H0895;TOMEBAMBA EN MONAY;-2.896224;-78.967885;2353;9033646;Tomebamba;Azuay;Cuenca;R0
SANTIAGO;H0896;MATADERO EN SAYAUSI;-2.878003;-79.068664;2602;9033645;Tomebamba;Azuay;Cuenca;R0
SANTIAGO;H0899;SAN FRANCISCO EN GUALACEO;-2.895417;-78.77125;2400;9033647;San Francisco;Azuay;Gualaceo;R0
SANTIAGO;H0900;PAUTE AJ DUDAS;-2.689604;-78.624579;2000;9032911;Paute;Azuay;Sevilla De Oro;R0
SANTIAGO;H0901;CANAL SAYMIRIN;-2.760306332;-79.01208334;2900;9033537;Machangara;Azuay;Cuenca;R0
SANTIAGO;H0902;DUDAS EN PINDILIG;-2.62875;-78.670417;2450;9032588;Dudas;Canar;Azogues;R0
SANTIAGO;H0905;MACHANGARA AJ CHULCO;-2.736424581;-79.00375001;2915;9033537;Machangara;Azuay;Cuenca;R0
SANTIAGO;H0906;JUVAL AJ PAUTE;-2.478749993;-78.60291667;1950;9032294;Juval;Canar;Azogues;R0
SANTIAGO;H0907;NAMANGOZA DJ UPANO;-2.762083;-78.270417;410;9033249;Namangoza;Morona Santiago;Santiago;R0
SANTIAGO;H0908;UPANO DJ. TUTAMANGOZA;-2.63625;-78.19625;559;9032761;Upano;Morona Santiago;Logrono;R0
SANTIAGO;H0909;PAUTE AJ UPANO;-2.754583326;-78.28125001;413;9033058;Namangoza;Morona Santiago;Santiago;R0
SANTIAGO;H0912;YACUAMBI EN LA PAZ;-3.730417;-78.885963;958;9037205;Yacuambi;Zamora Chinchipe;Yacuambi;R0
SANTIAGO;H0913;PALMIRA AJ PAUTE;-2.489583326;-78.53875001;1910;9032324;Palmira;Canar;Azogues;R0
SANTIAGO;H0917;PAUTE DJ LLAVIRCAY;-2.644444444;-78.61708334;0;9032911;Paute;Azuay;Sevilla De Oro;R0
SANTIAGO;H0918;PAUTE AJ CARDENILLO;-2.572083327;-78.48458334;1130;9032557;Paute;Azuay;Sevilla De Oro;R0
SANTIAGO;H0927;CHUCHUMBLETZA AJ ZAMORA;-3.537083326;-78.53375001;850;9036525;Chuchumbletza;Zamora Chinchipe;El Pangui;R0
SANTIAGO;H0929;COLLAY AJ PAUTE;-2.737538;-78.644124;2110;9033472;Collay;Azuay;Sevilla De Oro;R0
SANTIAGO;H0931;GUALACEO AJ PAUTE;-2.867917;-78.77125;2148;9033577;Gualaceo;Azuay;Gualaceo;R0
SANTIAGO;H0932;BURGAY AJ DELEG;-2.82159;-78.874918;2240;9033331;Burgay;Azuay;Paute;R0
SANTIAGO;H0942;TARQUI DJ SHUCAY;-2.950661;-79.046494;2510;9033821;Tarqui;Azuay;Cuenca;R0
PASTAZA;H0947;ALAQUEZ DJ BARRANCAS TOLUGCHE;-0.831107617;-78.54860763;3205;9026346;Alaquez;Cotopaxi;Latacunga;R0
PASTAZA;H0954;CUTUCHI EN LASSO(DSF.ILESA);-0.75541666;-78.60791667;2780;9025994;Cutuchi;Cotopaxi;Latacunga;R0
PASTAZA;H0961;CUTUCHI CA S.A.DE CALLO;-0.73921634;-78.60254968;2820;9025994;Cutuchi;Cotopaxi;Latacunga;R0
CHINCHIPE;H0966;MAYO AJ QDA.ZUMBAYACU;-4.87375;-79.087083;0;9042283;Mayo;Zamora Chinchipe;Chinchipe;R0
Portoviejo;H1081;PORTOVIEJO EN PICOAZA;-1.027083;-80.479582;48;9027275;Portoviejo;Manabi;Portoviejo;R0
CHIRA;H1098;PISCOBAMBA EN MOYOCOCHA;-4.29375;-79.272083;1490;9039727;Piscobamba;Loja;Loja;R0
Esmeraldas;H1101;PACHIJAL A.J. GUAYLLABAMBA;0.164583;-78.93625;520;9023424;Pachijal;Pichincha;Distrito Metropolitano De Quito;R0
Esmeraldas;H1102;CAONI A.J. BLANCO;0.120417;-79.254583;140;9023158;Caoni;Pichincha;Puerto Quito;R0
ESMERALDAS;H1118;QUININDE EN MATAMBA;0.082917;-79.597178;105;9023250;Quininde;Esmeraldas;Quininde;R0
JUBONES;H1119;RIRCAY D.J. GIRAN;-3.25125;-79.214173;1110;9035149;Rircay;Azuay;Giron;R0
ARENILLAS;H1120;RASPA EN ASERRIO;-3.399583;-79.807083;80;9035869;San Agustin;El Oro;Pasaje;R0
CARCHI;H1125;CHALPATAN;0.732778;-77.802778;3268;9021237;Chalpatan;Carchi;Tulcan;R0
NAPO;H1133;AGUARICO EN NUEVA LOJA (LA GABARRA);0.042336;-76.809003;299;9023597;Aguarico;Sucumbios;Lago Agrio;R0
NAPO;H1134;COCA EN SAN SEBASTIAN;-0.342083;-77.007083;320;9024789;Coca;Orellana;La Joya De Los Sachas;R0
NAPO;H1135;NAPO EN FRANCISCO DE ORELLANA;-0.473256;-76.979088;330;9025044;Napo;Orellana;Orellana;R0
NAPO;H1136;NAPO EN NUEVO ROCAFUERTE;-0.918551;-75.397282;180;9026410;Napo;Orellana;Aguarico;R0
CAYAPAS;H1139;SANTIAGO EN PTE. CARRETERA;1.072083;-78.901561;9;9020332;Santiago;Esmeraldas;Eloy Alfaro;R0
CAYAPAS;H1140;CAYAPAS EN PTE. CARRETERA;1.057577;-78.984583;10;9020565;Cayapas;Esmeraldas;Eloy Alfaro;R0
CHIRA;H1142;CATAMAYO EN PTE. VICIN;-4.269275;-80.105416;257;9039410;Catamayo;Loja;Zapotillo;R0
PASTAZA;H1143;AMBATO EN MANZANAHUAICO;-1.279583;-78.760854;3150;9027661;Ambato;Tungurahua;Ambato;R0
SANTIAGO;H1146;ZAMORA EN PUENTE JIMBILLA;-3.862083;-79.190881;2381;9037783;Zamora;Loja;Loja;R0
SANTIAGO;H1149;SANTIAGO EN BATALLON SANTIAGO;-3.052917;-78.012856;420;9034237;Santiago;Morona Santiago;Tiwintza;R0
ZARUMILLA;H5007;ZARUMILLA EN CARCABON;-3.625833;-80.19;40;9036652;Zarumilla;El Oro;Arenillas;R0
BALAO;H0506;PAGUA AJ BONITO(AJ SIETE);-3.084735;-79.780265;30;9034353;Pagua;El Oro;El Guabo;R0
ESMERALDAS;H0165;TOACHI AJ ALLURIQUIN;-0.318333;-78.9875;850;9024505;Toachi;Santo Domingo De Los Tsachilas;Santo Domingo De Los Tsachilas;R0
PASTAZA;H0826;CHAMBO EN HAD.CAHUAJI;-1.455833;-78.5075;2295;9028483;Chambo;Chimborazo;Penipe;R0
ESMERALDAS;H0152;LA CHIMBA EN OLMEDO;0.154452;-77.993079;3096;9023321;La Chimba;Pichincha;Cayambe;R0
GUAYAS;H0392;JUNQUILLO DD VERNASA;-1.682083;-79.802917;25;9029256;Vinces;Los Rios;Vinces;R0
JAMA;H0210;BRICENO EN BOTADERO;-0.525417;-80.351164;15;9025255;Briceno;Manabi;San Vicente;R0
GUAYAS;H0400;PEDRO CARBO EN PEDRO CARBO;-1.81875;-80.227083;65;9029670;Pedro Carbo;Guayas;Pedro Carbo;R0
GUAYAS;H0418;SUQUIBI AJ NAVES;-1.284583;-79.319583;0;9027762;Suquibi;Bolivar;Las Naves;R0
JUBONES;H0533;Jubones en Pte. Iberia;-3.266249993;-79.88625001;12;9035322;Jubones;El Oro;Machala;R0
;H0534;;;;;;;;;
;H0540;;;;;;;;;
;H0717;;;;;;;;;
NAPO;H0728;SALADO AJ COCA(AJ GUAYTARINGO);-0.196249994;-77.70125001;1480;9024126;Salado;Napo;El Chaco;R0
;H0911;;;;;;;;;
Esmeraldas;H1103;MULAUTE D.J. COCANIGUAS;-0.137917;-79.115417;520;9023944;Meme Grande;Santo Domingo;Santo Domingo;R0
Taura;H1141;BULUBULU ANTES DEL BY-PASS;-2.346586;-79.356747;40;9031564;Bulubulu;Guayas;El Triunfo;R0
